[
  {
    "latitude": "37.26404600000000",
    "longitude": "-6.93884200000000",
    "zoom": 16,
    "placeName": "Avenida De Andalucía 20, 21006 Huelva, Provincia de Huelva, España",
    "createdAt": "2020-05-01T00:00:00.000Z",
    "updatedAt": "2020-05-01T00:00:00.000Z"
  },
  {
    "latitude": "38.92156800000000",
    "longitude": "-6.33068200000000",
    "zoom": 16,
    "placeName": "Calle Guadajira 3, 06800 Mérida, Provincia de Badajoz, España",
    "createdAt": "2020-05-01T00:00:00.000Z",
    "updatedAt": "2020-05-01T00:00:00.000Z"
  },
  {
    "latitude": "37.25000000000000",
    "longitude": "-6.95000000000000",
    "zoom": 10,
    "placeName": "Huelva, Provincia de Huelva, España",
    "createdAt": "2020-05-01T00:00:00.000Z",
    "updatedAt": "2020-05-01T00:00:00.000Z"
  },
  {
    "latitude": "41.38250000000000",
    "longitude": "2.17694000000000",
    "zoom": 10,
    "placeName": "Barcelona, provincia de Barcelona, España",
    "createdAt": "2020-05-01T00:00:00.000Z",
    "updatedAt": "2020-05-01T00:00:00.000Z"
  },
  {
    "latitude": "40.41889000000000",
    "longitude": "-3.69194000000000",
    "zoom": 10,
    "placeName": "Madrid, Madrid, España",
    "createdAt": "2020-05-01T00:00:00.000Z",
    "updatedAt": "2020-05-01T00:00:00.000Z"
  },
  {
    "latitude": "37.26404600000000",
    "longitude": "-6.93884200000000",
    "zoom": 16,
    "placeName": "Avenida De Andalucía 20, 21006 Huelva, Provincia de Huelva, España",
    "createdAt": "2020-05-01T00:00:00.000Z",
    "updatedAt": "2020-05-01T00:00:00.000Z"
  },
  {
    "latitude": "38.92156800000000",
    "longitude": "-6.33068200000000",
    "zoom": 16,
    "placeName": "Calle Guadajira 3, 06800 Mérida, Provincia de Badajoz, España",
    "createdAt": "2020-05-01T00:00:00.000Z",
    "updatedAt": "2020-05-01T00:00:00.000Z"
  },
  {
    "latitude": "37.25000000000000",
    "longitude": "-6.95000000000000",
    "zoom": 10,
    "placeName": "Huelva, Provincia de Huelva, España",
    "createdAt": "2020-05-01T00:00:00.000Z",
    "updatedAt": "2020-05-01T00:00:00.000Z"
  },
  {
    "latitude": "41.38250000000000",
    "longitude": "2.17694000000000",
    "zoom": 10,
    "placeName": "Barcelona, provincia de Barcelona, España",
    "createdAt": "2020-05-01T00:00:00.000Z",
    "updatedAt": "2020-05-01T00:00:00.000Z"
  },
  {
    "latitude": "40.41889000000000",
    "longitude": "-3.69194000000000",
    "zoom": 10,
    "placeName": "Madrid, Madrid, España",
    "createdAt": "2020-05-01T00:00:00.000Z",
    "updatedAt": "2020-05-01T00:00:00.000Z"
  },
  {
    "latitude": "37.26404600000000",
    "longitude": "-6.93884200000000",
    "zoom": 16,
    "placeName": "Avenida De Andalucía 20, 21006 Huelva, Provincia de Huelva, España",
    "createdAt": "2020-05-01T00:00:00.000Z",
    "updatedAt": "2020-05-01T00:00:00.000Z"
  },
  {
    "latitude": "38.92156800000000",
    "longitude": "-6.33068200000000",
    "zoom": 16,
    "placeName": "Calle Guadajira 3, 06800 Mérida, Provincia de Badajoz, España",
    "createdAt": "2020-05-01T00:00:00.000Z",
    "updatedAt": "2020-05-01T00:00:00.000Z"
  },
  {
    "latitude": "37.25000000000000",
    "longitude": "-6.95000000000000",
    "zoom": 10,
    "placeName": "Huelva, Provincia de Huelva, España",
    "createdAt": "2020-05-01T00:00:00.000Z",
    "updatedAt": "2020-05-01T00:00:00.000Z"
  },
  {
    "latitude": "41.38250000000000",
    "longitude": "2.17694000000000",
    "zoom": 10,
    "placeName": "Barcelona, provincia de Barcelona, España",
    "createdAt": "2020-05-01T00:00:00.000Z",
    "updatedAt": "2020-05-01T00:00:00.000Z"
  },
  {
    "latitude": "40.41889000000000",
    "longitude": "-3.69194000000000",
    "zoom": 10,
    "placeName": "Madrid, Madrid, España",
    "createdAt": "2020-05-01T00:00:00.000Z",
    "updatedAt": "2020-05-01T00:00:00.000Z"
  },
  {
    "latitude": "41.38902900000000",
    "longitude": "2.16253600000000",
    "zoom": 16,
    "placeName": "Carrer De Balmes 45, 08007 Barcelona, provincia de Barcelona, España",
    "createdAt": "2020-05-01T00:00:00.000Z",
    "updatedAt": "2020-05-01T00:00:00.000Z"
  }
]
